[
  {
    "id": "my-no-9-1-lane-100-songjiang-rd-zhongshan-district-taipei-city-104",
    "name": "My 灶",
    "category": "Taiwanese restaurant",
    "status": "location",
    "loved": null,
    "district": "Zhongshan",
    "address": "No. 9-1, Lane 100, Songjiang Rd, Zhongshan District, Taipei City 104",
    "latitude": 25.0559383,
    "longitude": 121.5336675
  },
  {
    "id": "opensmile-pork-no-441-zhuangjing-rd-xinyi-district-taipei-city-110",
    "name": "開囍滷肉專賣店 opensmile (pork)",
    "category": "Taiwanese restaurant",
    "status": "been",
    "loved": null,
    "district": "Xinyi",
    "address": "No. 441, Zhuangjing Rd, Xinyi District, Taipei City 110",
    "latitude": 25.0240652,
    "longitude": 121.5646307
  },
  {
    "id": "slack-season-noodle-no-9-1-yongkang-st-daan-district-taipei-city-106",
    "name": "Slack Season Noodle (度小月)",
    "category": "Taiwanese restaurant",
    "status": "been",
    "loved": null,
    "district": "Daan",
    "address": "No. 9-1, Yongkang St, Daan District, Taipei City 106",
    "latitude": 25.029352,
    "longitude": 121.5298781
  },
  {
    "id": "ay-chung-flour-rice-noodles-no-2-lane-17-section-4-zhongxiao-e-rd-daan-district-taipei-city-taiwan-106",
    "name": "Ay-Chung Flour Rice Noodles",
    "category": "Noodle shop",
    "status": "been",
    "loved": null,
    "district": "Daan",
    "address": "No. 2號, Lane 17, Section 4, Zhongxiao E Rd, Da’an District, Taipei City, Taiwan 106",
    "latitude": 25.0436736,
    "longitude": 121.5071796
  },
  {
    "id": "no-80-dexing-e-rd-shilin-district-taipei-city-111",
    "name": "忠誠牛肉麵",
    "category": "Beef noodle restaurant",
    "status": "location",
    "loved": null,
    "district": "Shilin",
    "address": "No. 80, Dexing E Rd, Shilin District, Taipei City 111",
    "latitude": 25.1098797,
    "longitude": 121.5241711
  },
  {
    "id": "drbeef-east-gate-no-7-section-1-wuchang-st-zhongzheng-district-taipei-city-100",
    "name": "Drbeef East Gate",
    "category": "Beef noodle restaurant",
    "status": "location",
    "loved": null,
    "district": "Zhongzheng",
    "address": "No. 7, Section 1, Wuchang St, Zhongzheng District, Taipei City 100",
    "latitude": 25.0468669,
    "longitude": 121.5149639
  },
  {
    "id": "liu-shandong-beef-noodles-no-2-lane-14-section-1-kaifeng-st-zhongzheng-district-taipei-city-100",
    "name": "Liu Shandong Beef Noodles (劉山東牛肉麵)",
    "category": "Beef noodle restaurant",
    "status": "location",
    "loved": null,
    "district": "Zhongzheng",
    "address": "No. 2, Lane 14, Section 1, Kaifeng St, Zhongzheng District, Taipei City 100",
    "latitude": 25.0464298,
    "longitude": 121.5124199
  },
  {
    "id": "no-6-lane-101-yanping-s-rd-zhongzheng-district-taipei-city-100",
    "name": "張記鍋貼牛肉麵",
    "category": "Beef noodle restaurant",
    "status": "location",
    "loved": null,
    "district": "Zhongzheng",
    "address": "No. 6, Lane 101, Yanping S Rd, Zhongzheng District, Taipei City 100",
    "latitude": 25.0447704,
    "longitude": 121.5096264
  },
  {
    "id": "fuhong-beef-noodles-24-hours-no-69-luoyang-st-wanhua-district-taipei-city-108",
    "name": "Fuhong Beef Noodles 富宏牛肉麵 (24 hours)",
    "category": "Beef noodle restaurant",
    "status": "location",
    "loved": null,
    "district": "Wanhua",
    "address": "No. 69, Luoyang St, Wanhua District, Taipei City 108",
    "latitude": 25.0442993,
    "longitude": 121.5083821
  },
  {
    "id": "chef-hung-taiwanese-beef-noodle-no-72-section-2-jianguo-n-rd-zhongshan-district-taipei-city-104",
    "name": "Chef Hung Taiwanese Beef Noodle 洪師父冠軍牛肉麵-建北店",
    "category": "Beef noodle restaurant",
    "status": "location",
    "loved": null,
    "district": "Zhongshan",
    "address": "No. 72, Section 2, Jianguo N Rd, Zhongshan District, Taipei City 104",
    "latitude": 25.0555858,
    "longitude": 121.5364172
  },
  {
    "id": "azie-grand-cafe-in-regent-hotel-1f-no-3-lane-39-section-2-zhongshan-n-rd-zhongshan-district-taipei-city-104",
    "name": "Azie Grand Café in Regent Hotel",
    "category": "Beef noodle restaurant",
    "status": "location",
    "loved": null,
    "district": "Zhongshan",
    "address": "1F, No. 3, Lane 39, Section 2, Zhongshan N Rd, Zhongshan District, Taipei City 104",
    "latitude": 25.0546122,
    "longitude": 121.5231949
  },
  {
    "id": "no-6-minle-st-datong-district-taipei-city-103",
    "name": "江牛樓",
    "category": "Beef noodle restaurant",
    "status": "want_to_go",
    "loved": null,
    "district": "Datong",
    "address": "No. 6, Minle St, Datong District, Taipei City 103",
    "latitude": 25.0564316,
    "longitude": 121.5090058
  },
  {
    "id": "liao-jia-beef-noodle-restaurant-no-98-jinhua-st-daan-district-taipei-city-106",
    "name": "Liao Jia Beef Noodle Restaurant (廖家牛肉麵)",
    "category": "Beef noodle restaurant",
    "status": "location",
    "loved": null,
    "district": "Daan",
    "address": "No. 98, Jinhua St, Daan District, Taipei City 106",
    "latitude": 25.0302649,
    "longitude": 121.5290232
  },
  {
    "id": "xiao-chen-beef-noodle-restaurant-no-135-hulin-st-xinyi-district-taipei-city-110",
    "name": "Xiao Chen Beef Noodle Restaurant",
    "category": "Beef noodle restaurant",
    "status": "location",
    "loved": null,
    "district": "Xinyi",
    "address": "No. 135, Hulin St, Xinyi District, Taipei City 110",
    "latitude": 25.0372449,
    "longitude": 121.5773653
  },
  {
    "id": "muji-beef-noodles-110239-no-239-wuxing-st-xinyi-district-taipei-city-110",
    "name": "MuJi Beef Noodles 110台北市信義區吳興街239號",
    "category": "Beef noodle restaurant",
    "status": "location",
    "loved": null,
    "district": "Xinyi",
    "address": "No. 239, Wuxing St, Xinyi District, Taipei City 110",
    "latitude": 25.0309189,
    "longitude": 121.5621067
  },
  {
    "id": "neverland-noodle-bar-no-265-section-1-nangang-rd-nangang-district-taipei-city-115",
    "name": "Neverland noodle bar",
    "category": "Beef noodle restaurant",
    "status": "location",
    "loved": null,
    "district": "Nangang",
    "address": "No. 265, Section 1, Nangang Rd, Nangang District, Taipei City 115",
    "latitude": 25.054959,
    "longitude": 121.6051478
  },
  {
    "id": "no-16-1-lane-222-dunhua-n-rd-songshan-district-taipei-city-taiwan-105",
    "name": "洛毅牛肉麵館",
    "category": "Beef noodle restaurant",
    "status": "want_to_go",
    "loved": null,
    "district": "Songshan",
    "address": "No. 16-1號, Lane 222, Dunhua N Rd, Songshan District, Taipei City, Taiwan 105",
    "latitude": 25.0573,
    "longitude": 121.5481
  },
  {
    "id": "wumamiiiig-no-7-lane-20-section-2-hankou-st-wanhua-district-taipei-city-108",
    "name": "門前隱味牛肉麵 (wumamiiiig)",
    "category": "Beef noodle restaurant",
    "status": "been",
    "loved": true,
    "district": "Wanhua",
    "address": "No. 7, Lane 20, Section 2, Hankou St, Wanhua District, Taipei City 108",
    "latitude": 25.0440197,
    "longitude": 121.5040138
  },
  {
    "id": "no-47-anju-st-daan-district-taipei-city-106",
    "name": "老宋記真善美牛肉麵",
    "category": "Beef noodle restaurant",
    "status": "been",
    "loved": true,
    "district": "Daan",
    "address": "No. 47, Anju St, Daan District, Taipei City 106",
    "latitude": 25.0252798,
    "longitude": 121.5487204
  },
  {
    "id": "tien-hsia-san-jyue-no-3-lane-27-section-4-renai-rd-daan-district-taipei-city-106",
    "name": "Tien Hsia San Jyue 天下三絕",
    "category": "Beef noodle restaurant",
    "status": "been",
    "loved": true,
    "district": "Daan",
    "address": "No. 3, Lane 27, Section 4, Ren'ai Rd, Daan District, Taipei City 106",
    "latitude": 25.0372052,
    "longitude": 121.5480099
  },
  {
    "id": "duan-chun-zhen-no-20-songshou-rd-xinyi-district-taipei-city-110",
    "name": "Duan Chun Zhen 段純貞-信義威秀店",
    "category": "Beef noodle restaurant",
    "status": "been",
    "loved": null,
    "district": "Xinyi",
    "address": "No. 20, Songshou Rd, Xinyi District, Taipei City 110",
    "latitude": 25.0352876,
    "longitude": 121.5688084
  },
  {
    "id": "bandao-beef-noodle-restaurant-no-23-lane-215-section-5-zhongxiao-e-rd-xinyi-district-taipei-city-110",
    "name": "Bandao Beef Noodle Restaurant (半島牛肉麵)***",
    "category": "Beef noodle restaurant",
    "status": "been",
    "loved": null,
    "district": "Xinyi",
    "address": "No. 23, Lane 215, Section 5, Zhongxiao E Rd, Xinyi District, Taipei City 110",
    "latitude": 25.0429963,
    "longitude": 121.5713785
  },
  {
    "id": "ig-yangerlou-xinzhong-st-songshan-district-taipei-city-exact-address-shared-after-reservation",
    "name": "老楊在二樓 (ig: yangerlou)",
    "category": "Beef noodle restaurant",
    "status": "been",
    "loved": null,
    "district": "Songshan",
    "address": "Xinzhong St, Songshan District, Taipei City (exact address shared after reservation)",
    "latitude": 25.0572412,
    "longitude": 121.5676641
  },
  {
    "id": "niu-dian-beef-noodles-in-sg-no-91-kunming-st-wanhua-district-taipei-city-108",
    "name": "Niu Dian Beef Noodles 牛店 (in SG)",
    "category": "Beef noodle restaurant",
    "status": "location",
    "loved": null,
    "district": "Wanhua",
    "address": "No. 91, Kunming St, Wanhua District, Taipei City 108",
    "latitude": 25.0435158,
    "longitude": 121.506319
  },
  {
    "id": "no-11-lane-7-alley-181-section-4-zhongxiao-e-rd-daan-district-taipei-city-106",
    "name": "人从众厚切牛排(台北敦化店)",
    "category": "Steakhouse",
    "status": "location",
    "loved": null,
    "district": "Daan",
    "address": "No. 11, Lane 7, Alley 181, Section 4, Zhongxiao E Rd, Daan District, Taipei City 106",
    "latitude": 25.0418036,
    "longitude": 121.5501043
  },
  {
    "id": "shan-xi-dao-xiao-mien-no-2-lane-118-heping-e-rd-daan-district-taipei-city-106",
    "name": "Shan Xi Dao Xiao Mien (山西刀削麵)",
    "category": "Noodle shop",
    "status": "location",
    "loved": null,
    "district": "Daan",
    "address": "No. 2, Lane 118, Heping E Rd, Daan District, Taipei City 106",
    "latitude": 25.0242256,
    "longitude": 121.5286981
  },
  {
    "id": "tian-jin-onion-pancake-no-1-lane-6-yongkang-st-daan-district-taipei-city-106",
    "name": "Tian Jin Onion Pancake (天津蔥抓餅)",
    "category": "Snack bar",
    "status": "location",
    "loved": null,
    "district": "Daan",
    "address": "No. 1, Lane 6, Yongkang St, Daan District, Taipei City 106",
    "latitude": 25.0286103,
    "longitude": 121.5297342
  },
  {
    "id": "wenzhou-street-radish-pancake-no-186-1-section-1-heping-e-rd-daan-district-taipei-city-106",
    "name": "Wenzhou Street Radish Pancake (温州街蘿蔔絲餅達人)",
    "category": "Snack bar",
    "status": "location",
    "loved": null,
    "district": "Daan",
    "address": "No. 186-1, Section 1, Heping E Rd, Daan District, Taipei City 106",
    "latitude": 25.0263937,
    "longitude": 121.5343222
  },
  {
    "id": "no-31-1-leli-rd-daan-district-taipei-city-106",
    "name": "上海邵師傅湯包",
    "category": "Dumpling restaurant",
    "status": "location",
    "loved": null,
    "district": "Daan",
    "address": "No. 31-1, Leli Rd, Daan District, Taipei City 106",
    "latitude": 25.0283657,
    "longitude": 121.5517936
  },
  {
    "id": "no-2-lane-308-section-3-heping-e-rd-daan-district-taipei-city-106",
    "name": "阿清師港式煎餃蒸餃",
    "category": "Dumpling restaurant",
    "status": "location",
    "loved": null,
    "district": "Daan",
    "address": "No. 2, Lane 308, Section 3, Heping E Rd, Daan District, Taipei City 106",
    "latitude": 25.0199822,
    "longitude": 121.5482362
  },
  {
    "id": "takumi-dumplings-no-6-section-2-jinan-rd-zhongzheng-district-taipei-city-100",
    "name": "Takumi Dumplings / 巧之味手工水餃",
    "category": "Dumpling restaurant",
    "status": "location",
    "loved": null,
    "district": "Zhongzheng",
    "address": "No. 6, Section 2, Jinan Rd, Zhongzheng District, Taipei City 100",
    "latitude": 25.0400076,
    "longitude": 121.5246758
  },
  {
    "id": "chi-chia-chuang-no-55-changchun-rd-zhongshan-district-taipei-city-10491",
    "name": "Chi Chia Chuang 雞家莊",
    "category": "Taiwanese restaurant",
    "status": "location",
    "loved": null,
    "district": "Zhongshan",
    "address": "No. 55, Changchun Rd, Zhongshan District, Taipei City 10491",
    "latitude": 25.0527319,
    "longitude": 121.5268974
  },
  {
    "id": "no-8-beining-rd-songshan-district-taipei-city-105",
    "name": "巧軒涼麵",
    "category": "Noodle shop",
    "status": "been",
    "loved": true,
    "district": "Songshan",
    "address": "No. 8, Beining Rd, Songshan District, Taipei City 105",
    "latitude": 25.0499522,
    "longitude": 121.5575471
  },
  {
    "id": "cold-noodle-no-29-lane-123-section-5-nanjing-e-rd-songshan-district-taipei-city-105",
    "name": "陳家涼麵 Cold noodle",
    "category": "Noodle shop",
    "status": "location",
    "loved": null,
    "district": "Songshan",
    "address": "No. 29, Lane 123, Section 5, Nanjing E Rd, Songshan District, Taipei City 105",
    "latitude": 25.0506324,
    "longitude": 121.5601445
  },
  {
    "id": "fu-te-cold-noodle-no-76-xingan-st-zhongshan-district-taipei-city-104",
    "name": "Fu Te Cold Noodle 福德涼麵",
    "category": "Noodle shop",
    "status": "location",
    "loved": null,
    "district": "Zhongshan",
    "address": "No. 76, Xing'an St, Zhongshan District, Taipei City 104",
    "latitude": 25.0588632,
    "longitude": 121.5448164
  },
  {
    "id": "liu-mama-noodle-no-37-section-5-civic-blvd-songshan-district-taipei-city-105",
    "name": "Liu Mama Noodle (劉媽媽涼麵)",
    "category": "Noodle shop",
    "status": "location",
    "loved": null,
    "district": "Songshan",
    "address": "No. 37, Section 5, Civic Blvd, Songshan District, Taipei City 105",
    "latitude": 25.0474082,
    "longitude": 121.5632802
  },
  {
    "id": "no-2-2-alley-14-lane-150-section-5-xinyi-rd-xinyi-district-taipei-city-110",
    "name": "実正拉面",
    "category": "Ramen restaurant",
    "status": "location",
    "loved": null,
    "district": "Xinyi",
    "address": "No. 2-2, Alley 14, Lane 150, Section 5, Xinyi Rd, Xinyi District, Taipei City 110",
    "latitude": 25.0331432,
    "longitude": 121.5626047
  },
  {
    "id": "ryunokokyu-no-8-lane-1-section-2-chengde-rd-datong-district-taipei-city-103",
    "name": "龍鱗拉麵(@ryunokokyu)",
    "category": "Ramen restaurant",
    "status": "location",
    "loved": null,
    "district": "Datong",
    "address": "No. 8, Lane 1, Section 2, Chengde Rd, Datong District, Taipei City 103",
    "latitude": 25.0523577,
    "longitude": 121.5148676
  },
  {
    "id": "no-72-section-1-jianguo-n-rd-zhongshan-district-taipei-city-104",
    "name": "雙喜星海鮮",
    "category": "Seafood restaurant",
    "status": "location",
    "loved": null,
    "district": "Zhongshan",
    "address": "No. 72, Section 1, Jianguo N Rd, Zhongshan District, Taipei City 104",
    "latitude": 25.0523748,
    "longitude": 121.5361703
  },
  {
    "id": "xiao-lin-seafood-restaurant-no-24-lane-70-section-1-minquan-e-rd-zhongshan-district-taipei-city-104",
    "name": "Xiao Lin Seafood Restaurant (小林海產店)?",
    "category": "Seafood restaurant",
    "status": "location",
    "loved": null,
    "district": "Zhongshan",
    "address": "No. 24, Lane 70, Section 1, Minquan E Rd, Zhongshan District, Taipei City 104",
    "latitude": 25.0621761,
    "longitude": 121.5309501
  },
  {
    "id": "no-34-lane-51-tianshui-rd-datong-district-taipei-city-103",
    "name": "阿隆龜山島現撈海產",
    "category": "Seafood restaurant",
    "status": "location",
    "loved": null,
    "district": "Datong",
    "address": "No. 34, Lane 51, Tianshui Rd, Datong District, Taipei City 103",
    "latitude": 25.0534059,
    "longitude": 121.5110322
  },
  {
    "id": "no-3-alley-7-lane-106-donghu-rd-neihu-district-taipei-city-114",
    "name": "喜相逢麵館",
    "category": "Taiwanese restaurant",
    "status": "location",
    "loved": null,
    "district": "Neihu",
    "address": "No. 3, Alley 7, Lane 106, Donghu Rd, Neihu District, Taipei City 114",
    "latitude": 25.0725452,
    "longitude": 121.6128815
  },
  {
    "id": "no-7-alley-7-lane-303-section-3-nanjing-e-rd-songshan-district-taipei-city-105",
    "name": "祥和蔬食料理",
    "category": "Vegetarian restaurant",
    "status": "location",
    "loved": null,
    "district": "Songshan",
    "address": "No. 7, Alley 7, Lane 303, Section 3, Nanjing E Rd, Songshan District, Taipei City 105",
    "latitude": 25.052369,
    "longitude": 121.5637403
  },
  {
    "id": "no-74-section-2-keelung-rd-xinyi-district-taipei-city-110",
    "name": "週末炸雞俱樂部",
    "category": "Fried chicken restaurant",
    "status": "location",
    "loved": null,
    "district": "Xinyi",
    "address": "No. 74, Section 2, Keelung Rd, Xinyi District, Taipei City 110",
    "latitude": 25.0312722,
    "longitude": 121.5573265
  },
  {
    "id": "razzle-dazzle-no-51-section-1-zhongshan-n-rd-zhongshan-district-taipei-city-104",
    "name": "Razzle dazzle",
    "category": "Bistro",
    "status": "location",
    "loved": null,
    "district": "Zhongshan",
    "address": "No. 51, Section 1, Zhongshan N Rd, Zhongshan District, Taipei City 104",
    "latitude": 25.0490639,
    "longitude": 121.5224647
  },
  {
    "id": "logy-1f-no-39-lane-258-ruiguang-rd-neihu-district-taipei-city-114",
    "name": "Logy",
    "category": "Contemporary restaurant",
    "status": "want_to_go",
    "loved": null,
    "district": "Neihu",
    "address": "1F, No. 39, Lane 258, Ruiguang Rd, Neihu District, Taipei City 114",
    "latitude": 25.0787675,
    "longitude": 121.5752962
  },
  {
    "id": "yu-kappo-no-9-1-sanmin-rd-songshan-district-taipei-city-105",
    "name": "Yu Kappo",
    "category": "Kappo restaurant",
    "status": "location",
    "loved": null,
    "district": "Songshan",
    "address": "No. 9-1, Sanmin Rd, Songshan District, Taipei City 105",
    "latitude": 25.0552166,
    "longitude": 121.5643683
  },
  {
    "id": "amaze-no-598-mingshui-rd-zhongshan-district-taipei-city-104",
    "name": "aMaze",
    "category": "Chinese restaurant",
    "status": "location",
    "loved": null,
    "district": "Zhongshan",
    "address": "No. 598, Mingshui Rd, Zhongshan District, Taipei City 104",
    "latitude": 25.0784431,
    "longitude": 121.5562777
  },
  {
    "id": "le-beaujour-no-118-section-2-nanjing-e-rd-zhongshan-district-taipei-city-104",
    "name": "le beaujour",
    "category": "French restaurant",
    "status": "location",
    "loved": null,
    "district": "Zhongshan",
    "address": "No. 118, Section 2, Nanjing E Rd, Zhongshan District, Taipei City 104",
    "latitude": 25.0524726,
    "longitude": 121.5265674
  },
  {
    "id": "mipon-3f-no-55-lequn-2nd-rd-zhongshan-district-taipei-city-104",
    "name": "Mipon",
    "category": "Taiwanese restaurant",
    "status": "location",
    "loved": null,
    "district": "Zhongshan",
    "address": "3F, No. 55, Lequn 2nd Rd, Zhongshan District, Taipei City 104",
    "latitude": 25.0808624,
    "longitude": 121.5627554
  },
  {
    "id": "tabe-yakiniku-solo-no-20-lane-119-linsen-n-rd-zhongshan-district-taipei-city-104",
    "name": "TABE YAKINIKU 吃燒肉 (solo?)",
    "category": "Yakiniku restaurant",
    "status": "location",
    "loved": null,
    "district": "Zhongshan",
    "address": "No. 20, Lane 119, Linsen N Rd, Zhongshan District, Taipei City 104",
    "latitude": 25.0565141,
    "longitude": 121.5264247
  },
  {
    "id": "hakka-cuisine-kitchen-no-20-lane-120-dunhua-n-rd-songshan-district-taipei-city-taiwan-105",
    "name": "Hakka Cuisine Kitchen / 廚房客家美食",
    "category": "Hakka restaurant",
    "status": "been",
    "loved": null,
    "district": "Songshan",
    "address": "No. 20, Lane 120, Dunhua N Rd, Songshan District, Taipei City, Taiwan 105",
    "latitude": 25.0549,
    "longitude": 121.5487
  },
  {
    "id": "fujin-tree-taiwanese-cuisine-champagne-no-17-lane-199-dunhua-n-rd-songshan-district-taipei-city-105",
    "name": "Fujin Tree Taiwanese Cuisine & Champagne (富錦樹台菜香檳)",
    "category": "Taiwanese restaurant",
    "status": "been",
    "loved": null,
    "district": "Songshan",
    "address": "No. 17, Lane 199, Dunhua N Rd, Songshan District, Taipei City 105",
    "latitude": 25.0546483,
    "longitude": 121.548435
  },
  {
    "id": "itamaetw-3f-no-282-section-3-zhongxiao-e-rd-daan-district-taipei-city-106",
    "name": "板前中山 (Itamae.tw)",
    "category": "Yakiniku restaurant",
    "status": "location",
    "loved": null,
    "district": "Daan",
    "address": "3F, No. 282, Section 3, Zhongxiao E Rd, Daan District, Taipei City 106",
    "latitude": 25.041728,
    "longitude": 121.5421406
  },
  {
    "id": "leputing-no-67-section-2-hangzhou-s-rd-daan-district-taipei-city-106",
    "name": "Leputing (樂埔町)",
    "category": "Contemporary restaurant",
    "status": "location",
    "loved": null,
    "district": "Daan",
    "address": "No. 67, Section 2, Hangzhou S Rd, Daan District, Taipei City 106",
    "latitude": 25.0326204,
    "longitude": 121.5271487
  },
  {
    "id": "james-kitchen-no-65-yongkang-st-daan-district-taipei-city-106",
    "name": "James Kitchen (小隱私廚)",
    "category": "Taiwanese restaurant",
    "status": "location",
    "loved": null,
    "district": "Daan",
    "address": "No. 65, Yongkang St, Daan District, Taipei City 106",
    "latitude": 25.029792,
    "longitude": 121.5281861
  },
  {
    "id": "longtail-no-174-section-2-dunhua-s-rd-daan-district-taipei-city-106",
    "name": "Longtail",
    "category": "Eclectic restaurant",
    "status": "location",
    "loved": null,
    "district": "Daan",
    "address": "No. 174, Section 2, Dunhua S Rd, Daan District, Taipei City 106",
    "latitude": 25.0267843,
    "longitude": 121.5476759
  },
  {
    "id": "tua-no-15-1-lane-44-siwei-rd-daan-district-taipei-city-106",
    "name": "Tua (攤)",
    "category": "Restaurant",
    "status": "location",
    "loved": null,
    "district": "Daan",
    "address": "No. 15-1, Lane 44, Siwei Rd, Daan District, Taipei City 106",
    "latitude": 25.0325648,
    "longitude": 121.5466553
  },
  {
    "id": "brise-no-8-lane-92-section-1-jianguo-n-rd-zhongshan-district-taipei-city-10491",
    "name": "Brise",
    "category": "Contemporary restaurant",
    "status": "location",
    "loved": null,
    "district": "Zhongshan",
    "address": "No. 8, Lane 92, Section 1, Jianguo N Rd, Zhongshan District, Taipei City 10491",
    "latitude": 25.0509701,
    "longitude": 121.5368711
  },
  {
    "id": "xiang-se-no-1-2-hukou-st-zhongzheng-district-taipei-city-100",
    "name": "Xiang Se",
    "category": "European restaurant",
    "status": "been",
    "loved": true,
    "district": "Zhongzheng",
    "address": "No. 1-2, Hukou St, Zhongzheng District, Taipei City 100",
    "latitude": 25.0414941,
    "longitude": 121.5139928
  },
  {
    "id": "eika-no-58-minle-st-datong-district-taipei-city-103",
    "name": "Eika",
    "category": "Japanese restaurant",
    "status": "been",
    "loved": true,
    "district": "Datong",
    "address": "No. 58, Minle St, Datong District, Taipei City 103",
    "latitude": 25.056583,
    "longitude": 121.5097167
  },
  {
    "id": "birdy-2f-no-303-lequn-3rd-rd-zhongshan-district-taipei-city-10491",
    "name": "Birdy",
    "category": "Yakitori restaurant",
    "status": "been",
    "loved": true,
    "district": "Zhongshan",
    "address": "2F, No. 303, Lequn 3rd Rd, Zhongshan District, Taipei City 10491",
    "latitude": 25.0805433,
    "longitude": 121.5612191
  },
  {
    "id": "g-woo-no-63-lane-81-section-2-dunhua-s-rd-daan-district-taipei-city-106",
    "name": "G Woo / 雞窩餐廳",
    "category": "Chicken restaurant",
    "status": "been",
    "loved": true,
    "district": "Daan",
    "address": "No. 63, Lane 81, Section 2, Dunhua S Rd, Daan District, Taipei City 106",
    "latitude": 25.0299269,
    "longitude": 121.5480634
  },
  {
    "id": "mume-1f-no-28-siwei-rd-daan-district-taipei-city-106",
    "name": "Mume",
    "category": "Contemporary restaurant",
    "status": "been",
    "loved": null,
    "district": "Daan",
    "address": "1F, No. 28, Siwei Rd, Daan District, Taipei City 106",
    "latitude": 25.0326668,
    "longitude": 121.5465748
  },
  {
    "id": "wulao-hotpot-no-36-1-section-2-zhongshan-n-rd-zhongshan-district-taipei-city-104",
    "name": "Wulao Hotpot 無老鍋(中山店)",
    "category": "Hot pot restaurant",
    "status": "been",
    "loved": true,
    "district": "Zhongshan",
    "address": "No. 36-1, Section 2, Zhongshan N Rd, Zhongshan District, Taipei City 104",
    "latitude": 25.0536779,
    "longitude": 121.5236388
  },
  {
    "id": "no-422-jilin-rd-zhongshan-district-taipei-city-taiwan-10491",
    "name": "牛肆",
    "category": "Hot pot restaurant",
    "status": "location",
    "loved": null,
    "district": "Zhongshan",
    "address": "No. 422, Jilin Rd, Zhongshan District, Taipei City, Taiwan 10491",
    "latitude": 25.0632,
    "longitude": 121.5335
  },
  {
    "id": "orange-shabu-shabu-house-no-135-section-1-daan-rd-daan-district-taipei-city-106",
    "name": "Orange Shabu Shabu House (橘色涮涮屋)",
    "category": "Hot pot restaurant",
    "status": "location",
    "loved": null,
    "district": "Daan",
    "address": "No. 135, Section 1, Da'an Rd, Daan District, Taipei City 106",
    "latitude": 25.0410117,
    "longitude": 121.5471854
  },
  {
    "id": "ding-wang-hotpot-no-251-section-1-daan-rd-daan-district-taipei-city-106",
    "name": "Ding Wang Hotpot",
    "category": "Hot pot restaurant",
    "status": "location",
    "loved": null,
    "district": "Daan",
    "address": "No. 251, Section 1, Da'an Rd, Daan District, Taipei City 106",
    "latitude": 25.0377357,
    "longitude": 121.5461577
  },
  {
    "id": "251-no-251-section-1-daan-rd-daan-district-taipei-city-106",
    "name": "鼎旺麻辣鍋一店251號",
    "category": "Hot pot restaurant",
    "status": "location",
    "loved": null,
    "district": "Daan",
    "address": "No. 251, Section 1, Da'an Rd, Daan District, Taipei City 106",
    "latitude": 25.0377357,
    "longitude": 121.5461577
  },
  {
    "id": "no-292-fuxing-n-rd-zhongshan-district-taipei-city-104",
    "name": "宣牛溫體牛肉火鍋",
    "category": "Hot pot restaurant",
    "status": "location",
    "loved": null,
    "district": "Zhongshan",
    "address": "No. 292, Fuxing N Rd, Zhongshan District, Taipei City 104",
    "latitude": 25.0628832,
    "longitude": 121.5448737
  },
  {
    "id": "no-47-dongfeng-st-daan-district-taipei-city-106",
    "name": "盧記麻辣火鍋",
    "category": "Hot pot restaurant",
    "status": "location",
    "loved": null,
    "district": "Daan",
    "address": "No. 47, Dongfeng St, Daan District, Taipei City 106",
    "latitude": 25.0436607,
    "longitude": 121.5478213
  },
  {
    "id": "no-28-lane-11-leli-rd-daan-district-taipei-city-106",
    "name": "呼呼涮涮鍋",
    "category": "Hot pot restaurant",
    "status": "location",
    "loved": null,
    "district": "Daan",
    "address": "No. 28, Lane 11, Leli Rd, Daan District, Taipei City 106",
    "latitude": 25.0282129,
    "longitude": 121.5516435
  },
  {
    "id": "zero-sense-no-4-lane-160-section-1-dunhua-s-rd-daan-district-taipei-city-106",
    "name": "Zero Sense",
    "category": "Dessert shop",
    "status": "want_to_go",
    "loved": null,
    "district": "Daan",
    "address": "No. 4, Lane 160, Section 1, Dunhua S Rd, Daan District, Taipei City 106",
    "latitude": 25.0341202,
    "longitude": 121.5487054
  },
  {
    "id": "le-buno-dessert-bar-no-55-lane-187-section-1-dunhua-s-rd-daan-district-taipei-city-106",
    "name": "Le Buno Dessert Bar",
    "category": "Dessert shop",
    "status": "want_to_go",
    "loved": null,
    "district": "Daan",
    "address": "No. 55, Lane 187, Section 1, Dunhua S Rd, Daan District, Taipei City 106",
    "latitude": 25.033472,
    "longitude": 121.5494235
  },
  {
    "id": "no-31-alley-50-lane-39-tonghua-st-daan-district-taipei-city-106",
    "name": "御品元台北總店",
    "category": "Dessert shop",
    "status": "location",
    "loved": null,
    "district": "Daan",
    "address": "No. 31, Alley 50, Lane 39, Tonghua St, Daan District, Taipei City 106",
    "latitude": 25.0268142,
    "longitude": 121.5547864
  },
  {
    "id": "jingimoo-no-11-lane-7-lishui-st-daan-district-taipei-city-106",
    "name": "Jingimoo (金雞母)",
    "category": "Dessert shop",
    "status": "location",
    "loved": null,
    "district": "Daan",
    "address": "No. 11, Lane 7, Lishui St, Daan District, Taipei City 106",
    "latitude": 25.0241791,
    "longitude": 121.5295158
  },
  {
    "id": "kakazan-ice-club-no-37-1-lane-37-yongkang-st-daan-district-taipei-city-106009",
    "name": "Kakazan ice club",
    "category": "Dessert shop",
    "status": "location",
    "loved": null,
    "district": "Daan",
    "address": "No. 37-1, Lane 37, Yongkang St, Daan District, Taipei City 106009",
    "latitude": 25.0268974,
    "longitude": 121.5286358
  },
  {
    "id": "sao-dou-hua-no-36-lane-236-section-1-dunhua-s-rd-daan-district-taipei-city-106",
    "name": "Sao Dou Hua 騷豆花敦南旗艦店",
    "category": "Dessert shop",
    "status": "location",
    "loved": null,
    "district": "Daan",
    "address": "No. 36, Lane 236, Section 1, Dunhua S Rd, Daan District, Taipei City 106",
    "latitude": 25.0263001,
    "longitude": 121.5491106
  },
  {
    "id": "yong-kang-15-shaved-ice-no-15-yongkang-st-daan-district-taipei-city-106",
    "name": "Yong Kang 15 – Shaved Ice",
    "category": "Dessert shop",
    "status": "location",
    "loved": null,
    "district": "Daan",
    "address": "No. 15, Yongkang St, Daan District, Taipei City 106",
    "latitude": 25.028817,
    "longitude": 121.5296819
  },
  {
    "id": "no-34-yongkang-st-daan-district-taipei-city-106007",
    "name": "白水豆花",
    "category": "Dessert shop",
    "status": "been",
    "loved": true,
    "district": "Daan",
    "address": "No. 34, Yongkang St, Daan District, Taipei City 106007",
    "latitude": 25.0291586,
    "longitude": 121.5289415
  },
  {
    "id": "mata-tofu-pudding-no-63-yongkang-st-daan-district-taipei-city-106",
    "name": "山海豆花 MATA Tofu pudding",
    "category": "Dessert shop",
    "status": "been",
    "loved": true,
    "district": "Daan",
    "address": "No. 63, Yongkang St, Daan District, Taipei City 106",
    "latitude": 25.0298717,
    "longitude": 121.5281856
  },
  {
    "id": "soypresso-no-8-lishui-st-daan-district-taipei-city-106",
    "name": "Soypresso / 二吉軒豆漿",
    "category": "Dessert shop",
    "status": "location",
    "loved": null,
    "district": "Daan",
    "address": "No. 8, Lishui St, Daan District, Taipei City 106",
    "latitude": 25.0243715,
    "longitude": 121.5296882
  },
  {
    "id": "hugh-dessert-no-56-lane-136-section-3-chongqing-n-rd-datong-district-taipei-city-103",
    "name": "HUGH dessert",
    "category": "Dessert shop",
    "status": "want_to_go",
    "loved": null,
    "district": "Datong",
    "address": "No. 56, Lane 136, Section 3, Chongqing N Rd, Datong District, Taipei City 103",
    "latitude": 25.0645017,
    "longitude": 121.5113229
  },
  {
    "id": "pai-pai-cannoli-paipito-gelato-no-5-lane-17-chifeng-st-datong-district-taipei-city-10352",
    "name": "PAI PAI CANNOLI , PAIPITO GELATO義大利卡諾里冰淇淋甜點中山店",
    "category": "Dessert shop",
    "status": "been",
    "loved": true,
    "district": "Datong",
    "address": "No. 5, Lane 17, Chifeng St, Datong District, Taipei City 10352",
    "latitude": 25.0564779,
    "longitude": 121.5208126
  },
  {
    "id": "snow-king-ice-cream-2f-no-65-section-1-wuchang-st-zhongzheng-district-taipei-city-100",
    "name": "Snow King Ice Cream (雪王冰淇淋)",
    "category": "Dessert shop",
    "status": "location",
    "loved": null,
    "district": "Zhongzheng",
    "address": "2F, No. 65, Section 1, Wuchang St, Zhongzheng District, Taipei City 100",
    "latitude": 25.0465062,
    "longitude": 121.514331
  },
  {
    "id": "ron-museum-104-taiwan-taipei-city-zhongshan-district-lane-66-minsheng-w-rd-21",
    "name": "榕美斌館 / Ron Museum",
    "category": "Dessert shop",
    "status": "been",
    "loved": null,
    "district": "Zhongshan",
    "address": "104, Taiwan, Taipei City, Zhongshan District, Lane 66, Minsheng W Rd, 21號一樓",
    "latitude": 25.0583,
    "longitude": 121.5187
  },
  {
    "id": "but-we-love-butter-no-102-fujin-st-songshan-district-taipei-city-105",
    "name": "but. we love butter",
    "category": "Dessert shop",
    "status": "been",
    "loved": null,
    "district": "Songshan",
    "address": "No. 102, Fujin St, Songshan District, Taipei City 105",
    "latitude": 25.0574131,
    "longitude": 121.5634726
  },
  {
    "id": "soyyoung-no-270-section-5-zhongxiao-e-rd-xinyi-district-taipei-city-110",
    "name": "SOYYOUNG 永春",
    "category": "Dessert shop",
    "status": "been",
    "loved": null,
    "district": "Xinyi",
    "address": "No. 270, Section 5, Zhongxiao E Rd, Xinyi District, Taipei City 110",
    "latitude": 25.0413975,
    "longitude": 121.5709215
  },
  {
    "id": "dolce-gelateria-110015-taiwan-taipei-city-xinyi-district-lane-325-zhuangjing-rd-261",
    "name": "Dolce gelateria 手工義式冰淇淋",
    "category": "Dessert shop",
    "status": "location",
    "loved": null,
    "district": "",
    "address": "110015, Taiwan, Taipei City, Xinyi District, Lane 325, Zhuangjing Rd, 26號1樓",
    "latitude": 25.0256,
    "longitude": 121.5664
  },
  {
    "id": "terry-oolong-roaster-no-223-13-jinhua-st-daan-district-taipei-city-106",
    "name": "Terry Oolong roaster",
    "category": "Tea house",
    "status": "location",
    "loved": null,
    "district": "Daan",
    "address": "No. 223-13, Jinhua St, Daan District, Taipei City 106",
    "latitude": 25.0289644,
    "longitude": 121.5313956
  },
  {
    "id": "no-6-lane-4-yongkang-st-daan-district-taipei-city-106",
    "name": "金品茶語",
    "category": "Tea house",
    "status": "location",
    "loved": null,
    "district": "Daan",
    "address": "No. 6, Lane 4, Yongkang St, Daan District, Taipei City 106",
    "latitude": 25.0298,
    "longitude": 121.5294
  },
  {
    "id": "tacha-no-32-alley-1-lane-131-yanji-st-daan-district-taipei-city-106",
    "name": "大茶樹記 TACHA",
    "category": "Tea house",
    "status": "location",
    "loved": null,
    "district": "Daan",
    "address": "No. 32, Alley 1, Lane 131, Yanji St, Daan District, Taipei City 106",
    "latitude": 25.0420028,
    "longitude": 121.5564506
  },
  {
    "id": "wistaria-tea-house-closed-for-renovations-no-1-lane-16-section-3-xinsheng-s-rd-daan-district-taipei-city-106",
    "name": "Wistaria Tea House (closed for renovations)",
    "category": "Tea house",
    "status": "location",
    "loved": null,
    "district": "Daan",
    "address": "No. 1, Lane 16, Section 3, Xinsheng S Rd, Daan District, Taipei City 106",
    "latitude": 25.0239772,
    "longitude": 121.5334058
  },
  {
    "id": "qingtian-tea-house-no-8-qingtian-st-daan-district-taipei-city-106",
    "name": "Qingtian tea house",
    "category": "Tea house",
    "status": "location",
    "loved": null,
    "district": "Daan",
    "address": "No. 8, Qingtian St, Daan District, Taipei City 106",
    "latitude": 25.0275,
    "longitude": 121.5315
  },
  {
    "id": "ainsi-the-no-249-1-jinhua-st-daan-district-taipei-city-106",
    "name": "萃釅 AINSI THÉ",
    "category": "Tea house",
    "status": "been",
    "loved": null,
    "district": "Daan",
    "address": "No. 249-1, Jinhua St, Daan District, Taipei City 106",
    "latitude": 25.029,
    "longitude": 121.5319
  },
  {
    "id": "astea-no-236-wenchang-st-daan-district-taipei-city-106",
    "name": "Astea",
    "category": "Tea house",
    "status": "been",
    "loved": true,
    "district": "Daan",
    "address": "No. 236, Wenchang St, Daan District, Taipei City 106",
    "latitude": 25.0209773,
    "longitude": 121.5516515
  },
  {
    "id": "liquide-ambre-no-72-leli-rd-daan-district-taipei-city-106",
    "name": "Liquide Ambré 琥泊",
    "category": "Tea house",
    "status": "location",
    "loved": null,
    "district": "Daan",
    "address": "No. 72, Leli Rd, Daan District, Taipei City 106",
    "latitude": 25.0283041,
    "longitude": 121.5521735
  },
  {
    "id": "qingxiangzhai-no-2-lane-71-section-1-hangzhou-s-rd-zhongzheng-district-taipei-city-100",
    "name": "清香齋二號院 (qingxiangzhai)",
    "category": "Tea house",
    "status": "location",
    "loved": null,
    "district": "Zhongzheng",
    "address": "No. 2, Lane 71, Section 1, Hangzhou S Rd, Zhongzheng District, Taipei City 100",
    "latitude": 25.0388119,
    "longitude": 121.5243193
  },
  {
    "id": "wolf-tea-no-189-chifeng-st-datong-district-taipei-city-103",
    "name": "Wolf Tea",
    "category": "Tea house",
    "status": "location",
    "loved": null,
    "district": "Datong",
    "address": "No. 189, Chifeng St, Datong District, Taipei City 103",
    "latitude": 25.0588244,
    "longitude": 121.5180968
  },
  {
    "id": "wangtea-lab-no-24-lane-64-section-2-chongqing-n-rd-datong-district-taipei-city-103",
    "name": "Wangtea Lab",
    "category": "Tea house",
    "status": "location",
    "loved": null,
    "district": "Datong",
    "address": "No. 24, Lane 64, Section 2, Chongqing N Rd, Datong District, Taipei City 103",
    "latitude": 25.0629258,
    "longitude": 121.5139664
  },
  {
    "id": "no-36-1-songde-rd-xinyi-district-taipei-city-110",
    "name": "小隱茶庵 信義店",
    "category": "Tea house",
    "status": "location",
    "loved": null,
    "district": "Xinyi",
    "address": "No. 36-1, Songde Rd, Xinyi District, Taipei City 110",
    "latitude": 25.0323595,
    "longitude": 121.5755947
  },
  {
    "id": "hermits-hut-1f-no-15-alley-46-lane-553-section-4-zhongxiao-e-rd-xinyi-district-taipei-city-110",
    "name": "Hermit’s Hut",
    "category": "Tea house",
    "status": "location",
    "loved": null,
    "district": "Xinyi",
    "address": "1F, No. 15, Alley 46, Lane 553, Section 4, Zhongxiao E Rd, Xinyi District, Taipei City 110",
    "latitude": 25.0426161,
    "longitude": 121.5781451
  },
  {
    "id": "kino-1f-no-8-alley-14-lane-150-section-5-xinyi-rd-xinyi-district-taipei-city-110",
    "name": "木下庵 Kino",
    "category": "Tea house",
    "status": "location",
    "loved": null,
    "district": "Xinyi",
    "address": "1F, No. 8, Alley 14, Lane 150, Section 5, Xinyi Rd, Xinyi District, Taipei City 110",
    "latitude": 25.0332041,
    "longitude": 121.5624749
  },
  {
    "id": "eightyeightea-ribansyo-closed-for-renovations-no-174-section-1-zhonghua-rd-wanhua-district-taipei-city-taiwan-108",
    "name": "Eighty­Eightea Ribansyo (closed for renovations)",
    "category": "Tea house",
    "status": "location",
    "loved": null,
    "district": "Wanhua",
    "address": "No. 174, Section 1, Zhonghua Rd, Wanhua District, Taipei City, Taiwan 108",
    "latitude": 25.0434,
    "longitude": 121.5066
  },
  {
    "id": "le-cinq-1f-no-12-lane-83-section-1-keelung-rd-xinyi-district-taipei-city-110",
    "name": "Le cinq",
    "category": "Cafe",
    "status": "been",
    "loved": null,
    "district": "Xinyi",
    "address": "1F, No. 12, Lane 83, Section 1, Keelung Rd, Xinyi District, Taipei City 110",
    "latitude": 25.0401057,
    "longitude": 121.5660072
  },
  {
    "id": "sand-coffee-no-4-alley-40-lane-156-wuxing-st-xinyi-district-taipei-city-110",
    "name": "Sand coffee",
    "category": "Cafe",
    "status": "been",
    "loved": null,
    "district": "Xinyi",
    "address": "No. 4, Alley 40, Lane 156, Wuxing St, Xinyi District, Taipei City 110",
    "latitude": 25.028694,
    "longitude": 121.5668587
  },
  {
    "id": "kite-coffee-no-13-lane-385-guangfu-s-rd-xinyi-district-taipei-city-110",
    "name": "Kite coffee",
    "category": "Cafe",
    "status": "been",
    "loved": true,
    "district": "Xinyi",
    "address": "No. 13, Lane 385, Guangfu S Rd, Xinyi District, Taipei City 110",
    "latitude": 25.0396249,
    "longitude": 121.5593652
  },
  {
    "id": "nido-2f-no-183-section-5-zhongxiao-e-rd-xinyi-district-taipei-city-110072",
    "name": "巢 nido",
    "category": "Cafe",
    "status": "location",
    "loved": null,
    "district": "Xinyi",
    "address": "2F, No. 183, Section 5, Zhongxiao E Rd, Xinyi District, Taipei City 110072",
    "latitude": 25.0417626,
    "longitude": 121.5688231
  },
  {
    "id": "rockydoggy-no-62-lane-415-guangfu-s-rd-xinyi-district-taipei-city-11073",
    "name": "RockyDoggy",
    "category": "Cafe",
    "status": "location",
    "loved": null,
    "district": "Xinyi",
    "address": "No. 62, Lane 415, Guangfu S Rd, Xinyi District, Taipei City 11073",
    "latitude": 25.0439456,
    "longitude": 121.5593341
  },
  {
    "id": "no-39-wuxing-st-xinyi-district-taipei-city-110",
    "name": "小川珈琲所",
    "category": "Cafe",
    "status": "been",
    "loved": null,
    "district": "Xinyi",
    "address": "No. 39, Wuxing St, Xinyi District, Taipei City 110",
    "latitude": 25.0317969,
    "longitude": 121.5629023
  },
  {
    "id": "peckish-bakery-1f-no-385-yanshou-st-songshan-district-taipei-city-105",
    "name": "PECKiSH bakery",
    "category": "Cafe",
    "status": "location",
    "loved": null,
    "district": "Songshan",
    "address": "1F, No. 385, Yanshou St, Songshan District, Taipei City 105",
    "latitude": 25.0547156,
    "longitude": 121.5591315
  },
  {
    "id": "beckhome-no-1-alley-8-lane-303-section-3-nanjing-e-rd-songshan-district-taipei-city-105",
    "name": "Beckhome",
    "category": "Cafe",
    "status": "want_to_go",
    "loved": null,
    "district": "Songshan",
    "address": "No. 1, Alley 8, Lane 303, Section 3, Nanjing E Rd, Songshan District, Taipei City 105",
    "latitude": 25.051869,
    "longitude": 121.5633404
  },
  {
    "id": "222-22261f-taipei-taiwan-105",
    "name": "222",
    "category": "Cafe",
    "status": "been",
    "loved": null,
    "district": "Songshan",
    "address": "敦化北路222巷6號1F, Taipei, Taiwan 105",
    "latitude": 25.0546,
    "longitude": 121.5487
  },
  {
    "id": "fujin-tree-353-cafe-no-353-fujin-st-songshan-district-taipei-city-105",
    "name": "Fujin Tree 353 Cafe",
    "category": "Cafe",
    "status": "been",
    "loved": null,
    "district": "Songshan",
    "address": "No. 353, Fujin St, Songshan District, Taipei City 105",
    "latitude": 25.0606421,
    "longitude": 121.5614646
  },
  {
    "id": "ironwood-coffee-no-136-wenzhou-st-daan-district-taipei-city-106",
    "name": "Ironwood coffee",
    "category": "Cafe",
    "status": "want_to_go",
    "loved": null,
    "district": "Daan",
    "address": "No. 136, Wenzhou St, Daan District, Taipei City 106",
    "latitude": 25.026825,
    "longitude": 121.5315178
  },
  {
    "id": "coffee-along-no-17-alley-2-lane-345-section-4-renai-rd-daan-district-taipei-city-106",
    "name": "Coffee Along",
    "category": "Cafe",
    "status": "been",
    "loved": true,
    "district": "Daan",
    "address": "No. 17, Alley 2, Lane 345, Section 4, Ren'ai Rd, Daan District, Taipei City 106",
    "latitude": 25.0372548,
    "longitude": 121.5466002
  },
  {
    "id": "noon-no-2-1-lane-142-ruian-st-daan-district-taipei-city-106",
    "name": "Noon",
    "category": "Cafe",
    "status": "been",
    "loved": true,
    "district": "Daan",
    "address": "No. 2-1, Lane 142, Rui'an St, Daan District, Taipei City 106",
    "latitude": 25.0274298,
    "longitude": 121.5406249
  },
  {
    "id": "beam-coast-coffee-no-19-lane-52-section-1-daan-rd-daan-district-taipei-city-106070",
    "name": "Beam Coast Coffee",
    "category": "Cafe",
    "status": "been",
    "loved": true,
    "district": "Daan",
    "address": "No. 19, Lane 52, Section 1, Daan Rd, Daan District, Taipei City 106070",
    "latitude": 25.0397744,
    "longitude": 121.5469686
  },
  {
    "id": "branch-1f-no-2-alley-15-lane-345-section-4-renai-rd-daan-district-taipei-city-106",
    "name": "Branch",
    "category": "Cafe",
    "status": "been",
    "loved": null,
    "district": "Daan",
    "address": "1F, No. 2, Alley 15, Lane 345, Section 4, Ren'ai Rd, Daan District, Taipei City 106",
    "latitude": 25.036962,
    "longitude": 121.5465811
  },
  {
    "id": "stone-espresso-bar-no-6-lane-171-section-2-anhe-rd-daan-district-taipei-city-106",
    "name": "Stone Espresso bar",
    "category": "Cafe",
    "status": "location",
    "loved": null,
    "district": "Daan",
    "address": "No. 6, Lane 171, Section 2, Anhe Rd, Daan District, Taipei City 106",
    "latitude": 25.0285658,
    "longitude": 121.5521764
  },
  {
    "id": "lil-drop-coffee-no-6-alley-71-lane-223-section-4-zhongxiao-e-rd-daan-district-taipei-city-106",
    "name": "lil Drop coffee",
    "category": "Cafe",
    "status": "location",
    "loved": null,
    "district": "Daan",
    "address": "No. 6, Alley 71, Lane 223, Section 4, Zhongxiao E Rd, Daan District, Taipei City 106",
    "latitude": 25.0403797,
    "longitude": 121.5529989
  },
  {
    "id": "coffee-space-1f-no-6-3-lane-122-section-1-fuxing-s-rd-daan-district-taipei-city-106",
    "name": "Coffee Space",
    "category": "Cafe",
    "status": "location",
    "loved": null,
    "district": "Daan",
    "address": "1F, No. 6-3, Lane 122, Section 1, Fuxing S Rd, Daan District, Taipei City 106",
    "latitude": 25.0395901,
    "longitude": 121.544693
  },
  {
    "id": "dawn-coffee-daan-no-6-lane-107-section-1-fuxing-s-rd-daan-district-taipei-city-106",
    "name": "Dawn coffee. Daan",
    "category": "Cafe",
    "status": "location",
    "loved": null,
    "district": "Daan",
    "address": "No. 6, Lane 107, Section 1, Fuxing S Rd, Daan District, Taipei City 106",
    "latitude": 25.0406202,
    "longitude": 121.543018
  },
  {
    "id": "congrats-coffee-daan-no-49-wenchang-st-daan-district-taipei-city-106",
    "name": "Congrats coffee. Daan",
    "category": "Cafe",
    "status": "location",
    "loved": null,
    "district": "Daan",
    "address": "No. 49, Wenchang St, Daan District, Taipei City 106",
    "latitude": 25.0213697,
    "longitude": 121.5502129
  },
  {
    "id": "melt-daan-no-159-section-1-jianguo-s-rd-daan-district-taipei-city-106",
    "name": "Melt. Daan",
    "category": "Cafe",
    "status": "location",
    "loved": null,
    "district": "Daan",
    "address": "No. 159, Section 1, Jianguo S Rd, Daan District, Taipei City 106",
    "latitude": 25.0338372,
    "longitude": 121.5346248
  },
  {
    "id": "vwi-chadwang-daan-no-16-alley-4-lane-251-section-3-zhongxiao-e-rd-daan-district-taipei-city-106",
    "name": "VWI Chadwang. Daan",
    "category": "Cafe",
    "status": "location",
    "loved": null,
    "district": "Daan",
    "address": "No. 16, Alley 4, Lane 251, Section 3, Zhongxiao E Rd, Daan District, Taipei City 106",
    "latitude": 25.040655,
    "longitude": 121.5505935
  },
  {
    "id": "mkcr-daan-no-359-jiaxing-st-daan-district-taipei-city-106",
    "name": "MKCR. Daan",
    "category": "Cafe",
    "status": "been",
    "loved": null,
    "district": "Daan",
    "address": "No. 359, Jiaxing St, Daan District, Taipei City 106",
    "latitude": 25.0285105,
    "longitude": 121.5533986
  },
  {
    "id": "brewbrew-no-8-lane-13-chifeng-st-datong-district-taipei-city-103",
    "name": "BrewBrew",
    "category": "Cafe",
    "status": "been",
    "loved": true,
    "district": "Zhongshan",
    "address": "No. 8, Lane 13, Chifeng St, Datong District, Taipei City 103",
    "latitude": 25.0552,
    "longitude": 121.5195
  },
  {
    "id": "fika-fika-shiu-xiang-no-33-yitong-st-zhongshan-district-taipei-city-104",
    "name": "Fika Fika Shiu Xiang",
    "category": "Cafe",
    "status": "location",
    "loved": null,
    "district": "Zhongshan",
    "address": "No. 33, Yitong St, Zhongshan District, Taipei City 104",
    "latitude": 25.0576377,
    "longitude": 121.5346117
  },
  {
    "id": "mowa-coffee-roasters-zhongshan-1f-no-5-lane-4-jinzhou-st-zhongshan-district-taipei-city-104",
    "name": "Mowa coffee roasters Zhongshan",
    "category": "Cafe",
    "status": "been",
    "loved": null,
    "district": "Zhongshan",
    "address": "1F, No. 5, Lane 4, Jinzhou St, Zhongshan District, Taipei City 104",
    "latitude": 25.0609269,
    "longitude": 121.5305646
  },
  {
    "id": "powder-coffee-roasters-no-2-lane-90-section-2-minsheng-e-rd-zhongshan-district-taipei-city-10491",
    "name": "Powder coffee roasters",
    "category": "Cafe",
    "status": "want_to_go",
    "loved": null,
    "district": "Zhongshan",
    "address": "No. 2, Lane 90, Section 2, Minsheng E Rd, Zhongshan District, Taipei City 10491",
    "latitude": 25.0618116,
    "longitude": 121.5317592
  },
  {
    "id": "after5-no-1-lane-9-section-2-zhongshan-n-rd-zhongshan-district-taipei-city-104",
    "name": "After5 步驟六",
    "category": "Cafe",
    "status": "been",
    "loved": null,
    "district": "Zhongshan",
    "address": "No. 1, Lane 9, Section 2, Zhongshan N Rd, Zhongshan District, Taipei City 104",
    "latitude": 25.0544562,
    "longitude": 121.5232567
  },
  {
    "id": "no-136-liaoning-st-zhongshan-district-taipei-city-10491",
    "name": "鬧蟬咖啡",
    "category": "Cafe",
    "status": "location",
    "loved": null,
    "district": "Zhongshan",
    "address": "No. 136, Liaoning St, Zhongshan District, Taipei City 10491",
    "latitude": 25.0578165,
    "longitude": 121.5418618
  },
  {
    "id": "on-the-road-no-41-lane-330-minsheng-e-rd-zhongshan-district-taipei-city-104",
    "name": "露径 On The Road",
    "category": "Cafe",
    "status": "location",
    "loved": null,
    "district": "Zhongshan",
    "address": "No. 41, Lane 330, Minsheng E Rd, Zhongshan District, Taipei City 104",
    "latitude": 25.058097,
    "longitude": 121.5419085
  },
  {
    "id": "memo-cafe-no-182-hejiang-st-zhongshan-district-taipei-city-104",
    "name": "Memo cafe",
    "category": "Cafe",
    "status": "location",
    "loved": null,
    "district": "Zhongshan",
    "address": "No. 182, Hejiang St, Zhongshan District, Taipei City 104",
    "latitude": 25.0606317,
    "longitude": 121.5398385
  },
  {
    "id": "woodensounds-garnet-cru-no-23-lane-26-section-2-zhongshan-n-rd-zhongshan-district-taipei-city-104",
    "name": "woodensounds & Garnet Cru",
    "category": "Cafe",
    "status": "location",
    "loved": null,
    "district": "Zhongshan",
    "address": "No. 23, Lane 26, Section 2, Zhongshan N Rd, Zhongshan District, Taipei City 104",
    "latitude": 25.0556878,
    "longitude": 121.5220253
  },
  {
    "id": "summer-savage-no-36-lane-33-linyi-st-zhongzheng-district-taipei-city-100",
    "name": "Summer Savage",
    "category": "Cafe",
    "status": "been",
    "loved": null,
    "district": "Zhongzheng",
    "address": "No. 36, Lane 33, Linyi St, Zhongzheng District, Taipei City 100",
    "latitude": 25.033927,
    "longitude": 121.5260007
  },
  {
    "id": "hima-cafe-2f-no-8-alley-5-lane-149-section-1-heping-w-rd-zhongzheng-district-taipei-city-100",
    "name": "Hima Cafe",
    "category": "Cafe",
    "status": "location",
    "loved": null,
    "district": "Zhongzheng",
    "address": "2F, No. 8, Alley 5, Lane 149, Section 1, Heping W Rd, Zhongzheng District, Taipei City 100",
    "latitude": 25.0356917,
    "longitude": 121.5060953
  },
  {
    "id": "modern-mode-modern-mode-cafe-no-278-section-1-dihua-st-datong-district-taipei-city-103",
    "name": "Modern Mode & Modern Mode Café",
    "category": "Cafe",
    "status": "location",
    "loved": null,
    "district": "Datong",
    "address": "No. 278, Section 1, Dihua St, Datong District, Taipei City 103",
    "latitude": 25.0599535,
    "longitude": 121.5107467
  },
  {
    "id": "tinytail-2f-no-302-minquan-w-rd-datong-district-taipei-city-103",
    "name": "TinyTail",
    "category": "Cafe",
    "status": "location",
    "loved": null,
    "district": "Datong",
    "address": "2F, No. 302, Minquan W Rd, Datong District, Taipei City 103",
    "latitude": 25.0611659,
    "longitude": 121.5150468
  },
  {
    "id": "aka-rear-building-no-66-minle-st-datong-district-taipei-city-103",
    "name": "AKA",
    "category": "Cafe",
    "status": "location",
    "loved": null,
    "district": "Datong",
    "address": "Rear Building, No. 66, Minle St, Datong District, Taipei City 103",
    "latitude": 25.056609,
    "longitude": 121.5094774
  },
  {
    "id": "datong-no-20-lane-11-taiyuan-rd-datong-district-taipei-city-103",
    "name": "光生. Datong",
    "category": "Cafe",
    "status": "location",
    "loved": null,
    "district": "Datong",
    "address": "No. 20, Lane 11, Taiyuan Rd, Datong District, Taipei City 103",
    "latitude": 25.0544048,
    "longitude": 121.5164461
  },
  {
    "id": "sidoli-radio-datong-1f-no-245-changan-w-rd-datong-district-taipei-city-103",
    "name": "Sidoli radio. Datong",
    "category": "Cafe",
    "status": "location",
    "loved": null,
    "district": "Datong",
    "address": "1F, No. 245, Chang'an W Rd, Datong District, Taipei City 103",
    "latitude": 25.0515711,
    "longitude": 121.5108402
  },
  {
    "id": "ura219-1f-no-219-section-1-dihua-st-datong-district-taipei-city-103",
    "name": "Ura.219",
    "category": "Cafe",
    "status": "location",
    "loved": null,
    "district": "Datong",
    "address": "1F, No. 219, Section 1, Dihua St, Datong District, Taipei City 103",
    "latitude": 25.0586044,
    "longitude": 121.5102441
  },
  {
    "id": "instil-coffee-zhongshan-no-25-lane-77-section-1-chengde-rd-datong-district-taipei-city-103",
    "name": "Instil coffee. Zhongshan",
    "category": "Cafe",
    "status": "location",
    "loved": null,
    "district": "Datong",
    "address": "No. 25, Lane 77, Section 1, Chengde Rd, Datong District, Taipei City 103",
    "latitude": 25.0535353,
    "longitude": 121.5147095
  },
  {
    "id": "greenriver-roastery-nangang-no-178-lane-155-section-7-zhongxiao-e-rd-nangang-district-taipei-city-115",
    "name": "Greenriver Roastery. Nangang",
    "category": "Cafe",
    "status": "want_to_go",
    "loved": null,
    "district": "Nangang",
    "address": "No. 178, Lane 155, Section 7, Zhongxiao E Rd, Nangang District, Taipei City 115",
    "latitude": 25.0547612,
    "longitude": 121.6148597
  },
  {
    "id": "plants-no-10-lane-253-section-1-fuxing-s-rd-daan-district-taipei-city-106",
    "name": "Plants",
    "category": "Vegan restaurant",
    "status": "location",
    "loved": null,
    "district": "Daan",
    "address": "No. 10, Lane 253, Section 1, Fuxing S Rd, Daan District, Taipei City 106",
    "latitude": 25.0398157,
    "longitude": 121.5428157
  },
  {
    "id": "huashan-1914-creative-park-no-1-section-1-bade-rd-zhongzheng-district-taipei-city-100",
    "name": "Huashan 1914 Creative Park",
    "category": "Cultural center",
    "status": "location",
    "loved": null,
    "district": "Zhongzheng",
    "address": "No. 1, Section 1, Bade Rd, Zhongzheng District, Taipei City 100",
    "latitude": 25.0456854,
    "longitude": 121.5295297
  },
  {
    "id": "ushikichi-001-yakiniku-no-38-1-tongan-st-daan-district-taipei-city-106",
    "name": "Ushikichi 001 yakiniku",
    "category": "Yakiniku restaurant",
    "status": "location",
    "loved": null,
    "district": "Daan",
    "address": "No. 38-1, Tong'an St, Daan District, Taipei City 106",
    "latitude": 25.0245064,
    "longitude": 121.531546
  },
  {
    "id": "noodles-b1-no-97-section-4-zhongxiao-e-rd-daan-district-taipei-city-106",
    "name": "美景紅油抄手 noodles",
    "category": "Noodle shop",
    "status": "location",
    "loved": null,
    "district": "Daan",
    "address": "B1, No. 97, Section 4, Zhongxiao E Rd, Daan District, Taipei City 106",
    "latitude": 25.0417034,
    "longitude": 121.5499845
  },
  {
    "id": "sun-bros-noodles-b2-no-11-songshou-rd-xinyi-district-taipei-city-110",
    "name": "Sun Bros noodles",
    "category": "Noodle shop",
    "status": "location",
    "loved": null,
    "district": "Xinyi",
    "address": "B2, No. 11, Songshou Rd, Xinyi District, Taipei City 110",
    "latitude": 25.0348371,
    "longitude": 121.567011
  },
  {
    "id": "rora-bistro-no-133-wenzhou-st-daan-district-taipei-city-106",
    "name": "Rora bistro",
    "category": "Bistro",
    "status": "location",
    "loved": null,
    "district": "Daan",
    "address": "No. 133, Wenzhou St, Daan District, Taipei City 106",
    "latitude": 25.0281119,
    "longitude": 121.5314723
  },
  {
    "id": "odenan-1f-no-20-lane-165-dunhua-n-rd-songshan-district-taipei-city-105",
    "name": "料理屋安家 oden.an",
    "category": "Oden restaurant",
    "status": "location",
    "loved": null,
    "district": "Songshan",
    "address": "1F, No. 20, Lane 165, Dunhua N Rd, Songshan District, Taipei City 105",
    "latitude": 25.0552314,
    "longitude": 121.5483707
  },
  {
    "id": "ramen-datong-no-25-lane-23-chifeng-st-datong-district-taipei-city-103",
    "name": "池音拉麵 ramen. Datong",
    "category": "Ramen restaurant",
    "status": "location",
    "loved": null,
    "district": "Datong",
    "address": "No. 25, Lane 23, Chifeng St, Datong District, Taipei City 103",
    "latitude": 25.0556875,
    "longitude": 121.5183151
  },
  {
    "id": "chubby-burger-no-165-section-1-keelung-rd-xinyi-district-taipei-city-taiwan-110",
    "name": "Chubby burger",
    "category": "Burger",
    "status": "location",
    "loved": null,
    "district": "Xinyi",
    "address": "No. 165號, Section 1, Keelung Rd, Xinyi District, Taipei City, Taiwan 110",
    "latitude": 25.0339,
    "longitude": 121.5668
  },
  {
    "id": "peacewave-189-tonghua-st-daan-district-taipei-city-taiwan-106",
    "name": "食堂 平浪PEACEWAVE",
    "category": "Izakaya",
    "status": "location",
    "loved": null,
    "district": "Daan",
    "address": "189號, Tonghua St, Da’an District, Taipei City, Taiwan 106",
    "latitude": 25.028,
    "longitude": 121.5547
  },
  {
    "id": "mia-cucina-2f-no-11-songshou-rd-xinyi-district-taipei-city-110",
    "name": "Mia cucina",
    "category": "Vegetarian restaurant",
    "status": "location",
    "loved": null,
    "district": "Xinyi",
    "address": "2F, No. 11, Songshou Rd, Xinyi District, Taipei City 110",
    "latitude": 25.0348371,
    "longitude": 121.567011
  },
  {
    "id": "asasumi-105-taiwan-taipei-city-songshan-district-fujin-st-4481",
    "name": "朝炭 Asasumi",
    "category": "Japanese restaurant",
    "status": "location",
    "loved": null,
    "district": "Songshan",
    "address": "105, Taiwan, Taipei City, Songshan District, Fujin St, 448號1樓",
    "latitude": 25.0607,
    "longitude": 121.5625
  },
  {
    "id": "toriaezu-curry-no-13-lane-11-wenzhou-st-daan-district-taipei-city-106",
    "name": "Toriaezu curry",
    "category": "Curry restaurant",
    "status": "location",
    "loved": null,
    "district": "Daan",
    "address": "No. 13, Lane 11, Wenzhou St, Daan District, Taipei City 106",
    "latitude": 25.0274536,
    "longitude": 121.5311093
  },
  {
    "id": "fei-qian-wu-no-20-lane-250-longjiang-rd-zhongshan-district-taipei-city-104",
    "name": "Fei Qian Wu",
    "category": "Unagi restaurant",
    "status": "location",
    "loved": null,
    "district": "Zhongshan",
    "address": "No. 20, Lane 250, Longjiang Rd, Zhongshan District, Taipei City 104",
    "latitude": 25.0581831,
    "longitude": 121.5402427
  },
  {
    "id": "wildwood-4f-no-9-songshou-rd-xinyi-district-taipei-city-110",
    "name": "Wildwood",
    "category": "Steakhouse",
    "status": "location",
    "loved": null,
    "district": "Xinyi",
    "address": "4F, No. 9, Songshou Rd, Xinyi District, Taipei City 110",
    "latitude": 25.0351059,
    "longitude": 121.5675809
  },
  {
    "id": "amamoto-no-7-lane-165-liaoning-st-zhongshan-district-taipei-city-104",
    "name": "Amamoto",
    "category": "Sushi restaurant",
    "status": "location",
    "loved": null,
    "district": "Zhongshan",
    "address": "No. 7, Lane 165, Liaoning St, Zhongshan District, Taipei City 104",
    "latitude": 25.0561752,
    "longitude": 121.5413091
  },
  {
    "id": "chen-sushi-kappou-no-2-lane-147-section-3-bade-rd-zhongshan-district-taipei-city-104",
    "name": "Chen Sushi Kappou",
    "category": "Sushi restaurant",
    "status": "location",
    "loved": null,
    "district": "Zhongshan",
    "address": "No. 2, Lane 147, Section 3, Bade Rd, Zhongshan District, Taipei City 104",
    "latitude": 25.0461821,
    "longitude": 121.5420145
  },
  {
    "id": "maru-no-1-lane-3-zhenjiang-st-zhongzheng-district-taipei-city-100",
    "name": "Maru",
    "category": "Japanese restaurant",
    "status": "location",
    "loved": null,
    "district": "Zhongzheng",
    "address": "No. 1, Lane 3, Zhenjiang St, Zhongzheng District, Taipei City 100",
    "latitude": 25.0342663,
    "longitude": 121.5243874
  },
  {
    "id": "sushi-adachi-no-8-1-lane-84-section-2-zhongshan-n-rd-zhongshan-district-taipei-city-104",
    "name": "Sushi Adachi",
    "category": "Sushi restaurant",
    "status": "location",
    "loved": null,
    "district": "Zhongshan",
    "address": "No. 8-1, Lane 84, Section 2, Zhongshan N Rd, Zhongshan District, Taipei City 104",
    "latitude": 25.0565517,
    "longitude": 121.5240062
  },
  {
    "id": "chuan-wei-er-chuan-wei-guan-no-11-lane-39-section-2-zhongshan-n-rd-zhongshan-district-taipei-city-104",
    "name": "Chuan Wei Er Chuan Wei Guan",
    "category": "Sichuan restaurant",
    "status": "location",
    "loved": null,
    "district": "Zhongshan",
    "address": "No. 11, Lane 39, Section 2, Zhongshan N Rd, Zhongshan District, Taipei City 104",
    "latitude": 25.0547087,
    "longitude": 121.5234332
  },
  {
    "id": "miacucina-2f-no-11-songshou-rd-xinyi-district-taipei-city-110",
    "name": "MiaCucina",
    "category": "Vegetarian restaurant",
    "status": "location",
    "loved": null,
    "district": "Xinyi",
    "address": "2F, No. 11, Songshou Rd, Xinyi District, Taipei City 110",
    "latitude": 25.0348371,
    "longitude": 121.567011
  },
  {
    "id": "ibuki-no-118-yanji-st-daan-district-taipei-city-106",
    "name": "Ibuki",
    "category": "Japanese restaurant",
    "status": "location",
    "loved": null,
    "district": "Daan",
    "address": "No. 118, Yanji St, Daan District, Taipei City 106",
    "latitude": 25.0415068,
    "longitude": 121.5545186
  },
  {
    "id": "taiwanippon-no-5-lane-7-linsen-n-rd-zhongshan-district-taipei-city-104",
    "name": "taiwanippon",
    "category": "Japanese restaurant",
    "status": "location",
    "loved": null,
    "district": "Zhongshan",
    "address": "No. 5, Lane 7, Linsen N Rd, Zhongshan District, Taipei City 104",
    "latitude": 25.0527514,
    "longitude": 121.5254226
  },
  {
    "id": "addiction-aquatic-development-no-18-alley-2-lane-410-minzu-e-rd-zhongshan-district-taipei-city-104",
    "name": "Addiction Aquatic Development",
    "category": "Seafood market",
    "status": "location",
    "loved": null,
    "district": "Zhongshan",
    "address": "No. 18, Alley 2, Lane 410, Minzu E Rd, Zhongshan District, Taipei City 104",
    "latitude": 25.0684557,
    "longitude": 121.5350817
  },
  {
    "id": "sightseeing-no-24-bishan-rd-neihu-district-taipei-city-114",
    "name": "碧山巖露營場 (sightseeing)",
    "category": "Scenic spot",
    "status": "location",
    "loved": null,
    "district": "Neihu",
    "address": "No. 24, Bishan Rd, Neihu District, Taipei City 114",
    "latitude": 25.0863532,
    "longitude": 121.5789798
  },
  {
    "id": "sake-bar-no-44-lane-300-section-4-renai-rd-daan-district-taipei-city-106",
    "name": "丘香Sake bar",
    "category": "Sake bar",
    "status": "location",
    "loved": null,
    "district": "Daan",
    "address": "No. 44, Lane 300, Section 4, Ren'ai Rd, Daan District, Taipei City 106",
    "latitude": 25.0382111,
    "longitude": 121.5469218
  },
  {
    "id": "can-nature-wine-bar-no-12-lane-80-section-1-chongqing-n-rd-datong-district-taipei-city-103",
    "name": "Can Nature wine bar",
    "category": "Wine bar",
    "status": "location",
    "loved": null,
    "district": "Datong",
    "address": "No. 12, Lane 80, Section 1, Chongqing N Rd, Datong District, Taipei City 103",
    "latitude": 25.061336,
    "longitude": 121.5112695
  },
  {
    "id": "bar-otani-no-16-lane-21-section-2-zhongshan-n-rd-zhongshan-district-taipei-city-104",
    "name": "Bar Otani",
    "category": "Cocktail bar",
    "status": "location",
    "loved": null,
    "district": "Zhongshan",
    "address": "No. 16, Lane 21, Section 2, Zhongshan N Rd, Zhongshan District, Taipei City 104",
    "latitude": 25.0527515,
    "longitude": 121.5235566
  },
  {
    "id": "tei-by-obond-no-76-songren-rd-xinyi-district-taipei-city-110",
    "name": "Tei by Obond",
    "category": "Bar",
    "status": "location",
    "loved": null,
    "district": "Xinyi",
    "address": "No. 76, Songren Rd, Xinyi District, Taipei City 110",
    "latitude": 25.0285056,
    "longitude": 121.5684851
  },
  {
    "id": "no-41-songqin-st-xinyi-district-taipei-city-taiwan-110",
    "name": "小莫商行",
    "category": "Bar",
    "status": "location",
    "loved": null,
    "district": "Xinyi",
    "address": "No. 41號, Songqin St, Xinyi District, Taipei City, Taiwan 110",
    "latitude": 25.0331,
    "longitude": 121.5708
  },
  {
    "id": "hakuho-no-8-lane-160-section-1-dunhua-s-rd-daan-district-taipei-city-106",
    "name": "Hakuho",
    "category": "Japanese restaurant",
    "status": "location",
    "loved": null,
    "district": "Daan",
    "address": "No. 8, Lane 160, Section 1, Dunhua S Rd, Daan District, Taipei City 106",
    "latitude": 25.033827,
    "longitude": 121.5482236
  },
  {
    "id": "no-21-section-1-daan-rd-daan-district-taipei-city-106",
    "name": "青山-青茶",
    "category": "Tea shop",
    "status": "location",
    "loved": null,
    "district": "Daan",
    "address": "No. 21, Section 1, Daan Rd, Daan District, Taipei City 106",
    "latitude": 25.0388808,
    "longitude": 121.5446381
  },
  {
    "id": "longoo-tea-lab-no-18-lane-31-section-1-keelung-rd-xinyi-district-taipei-city-110",
    "name": "巃蕪信義 LONGOO - tea lab",
    "category": "Beverage shop",
    "status": "location",
    "loved": null,
    "district": "Xinyi",
    "address": "No. 18, Lane 31, Section 1, Keelung Rd, Xinyi District, Taipei City 110",
    "latitude": 25.0358871,
    "longitude": 121.5651235
  },
  {
    "id": "peak-tea-no-11-lane-361-section-4-bade-rd-songshan-district-taipei-city-105",
    "name": "Peak tea",
    "category": "Tea shop",
    "status": "location",
    "loved": null,
    "district": "Songshan",
    "address": "No. 11, Lane 361, Section 4, Bade Rd, Songshan District, Taipei City 105",
    "latitude": 25.0490767,
    "longitude": 121.5629418
  }
]
